{
	"results": [
	{
		"name": "東京",
		"geo": {
			"__type": "GeoPoint",
			"latitude": 35.681382,
			"longitude": 139.76608399999998
		},
		"address": "東京都千代田区丸の内１丁目９－１",
		"tel": "000-0000-0000"
	},
	{
		"name": "有楽町",
		"geo": {
			"__type": "GeoPoint",
			"latitude": 35.675069,
			"longitude": 139.763328
		},
		"address": "東京都千代田区有楽町２丁目９－１",
		"tel": "111-1111-1111"
	},
	{
		"name": "新橋",
		"geo": {
			"__type": "GeoPoint",
			"latitude": 35.665498,
			"longitude": 139.75964
		},
		"address": "東京都港区新橋２丁目１７－１４",
		"tel": "222-222-2222"
	},
	{
		"name": "浜松町",
		"geo": {
			"__type": "GeoPoint",
			"latitude": 35.655646,
			"longitude": 139.756749
		},
		"address": "東京都港区海岸１丁目３－１",
		"tel": "333-333-3333"
	},
	{
		"name": "田町",
		"geo": {
			"__type": "GeoPoint",
			"latitude": 35.645736,
			"longitude": 139.74757499999998
		},
		"address": "東京都港区芝５丁目３３",
		"tel": "444-444-4444"
	},
	{
		"name": "品川",
		"geo": {
			"__type": "GeoPoint",
			"latitude": 35.630152,
			"longitude": 139.74044000000004
		},
		"address": "東京都港区高輪３丁目２６－２７",
		"tel": "555-555-5555"
	},
	{
		"name": "大崎",
		"geo": {
			"__type": "GeoPoint",
			"latitude": 35.6197,
			"longitude": 139.72855300000003
		},
		"address": "東京都品川区大崎１丁目２１－４",
		"tel": "666-666-6666"
	},
	{
		"name": "五反田",
		"geo": {
			"__type": "GeoPoint",
			"latitude": 35.626446,
			"longitude": 139.72344399999997
		},
		"address": "東京都品川区東五反田１丁目２６－２",
		"tel": "777-777-7777"
	},
	{
		"name": "目黒",
		"geo": {
			"__type": "GeoPoint",
			"latitude": 35.633998,
			"longitude": 139.715828
		},
		"address": "東京都品川区上大崎２丁目１６－９",
		"tel": "888-888-8888"
	},
	{
		"name": "恵比寿",
		"geo": {
			"__type": "GeoPoint",
			"latitude": 35.64669,
			"longitude": 139.710106
		},
		"address": "東京都渋谷区恵比寿南１丁目５",
		"tel": "999-999-9999"
	},
	{
		"name": "渋谷",
		"geo": {
			"__type": "GeoPoint",
			"latitude": 35.658517,
			"longitude": 139.70133399999997
		},
		"address": "東京都渋谷区道玄坂１丁目",
		"tel": "000-000-0000"
	},
	{
		"name": "原宿",
		"geo": {
			"__type": "GeoPoint",
			"latitude": 35.670168,
			"longitude": 139.70268699999997
		},
		"address": "東京都渋谷区神宮前１丁目１８－２０",
		"tel": "111-111-1111"
	},
	{
		"name": "代々木",
		"geo": {
			"__type": "GeoPoint",
			"latitude": 35.683061,
			"longitude": 139.702042
		},
		"address": "東京都渋谷区代々木１丁目３４－１",
		"tel": "222-222-2222"
	},
	{
		"name": "新宿",
		"geo": {
			"__type": "GeoPoint",
			"latitude": 35.690921,
			"longitude": 139.70025799999996
		},
		"address": "東京都新宿区新宿３丁目３８－１",
		"tel": "333-333-3333"
	},
	{
		"name": "新大久保",
		"geo": {
			"__type": "GeoPoint",
			"latitude": 35.701306,
			"longitude": 139.70004399999993
		},
		"address": "東京都新宿区百人町１丁目１０－１０",
		"tel": "444-444-4444"
	},
	{
		"name": "高田馬場",
		"geo": {
			"__type": "GeoPoint",
			"latitude": 35.712285,
			"longitude": 139.70378200000005
		},
		"address": "東京都新宿区高田馬場１丁目３５",
		"tel": "555-555-5555"
	},
	{
		"name": "目白",
		"geo": {
			"__type": "GeoPoint",
			"latitude": 35.721204,
			"longitude": 139.706587
		},
		"address": "東京都豊島区目白３丁目３－１",
		"tel": "666-666-6666"
	},
	{
		"name": "池袋",
		"geo": {
			"__type": "GeoPoint",
			"latitude": 35.728926,
			"longitude": 139.71038
		},
		"address": "東京都豊島区南池袋１丁目２８－２",
		"tel": "777-777-7777"
	},
	{
		"name": "大塚",
		"geo": {
			"__type": "GeoPoint",
			"latitude": 35.731401,
			"longitude": 139.72866199999999
		},
		"address": "東京都豊島区南大塚３丁目３３－１",
		"tel": "888-888-8888"
	},
	{
		"name": "巣鴨",
		"geo": {
			"__type": "GeoPoint",
			"latitude": 35.733492,
			"longitude": 139.73934499999996
		},
		"address": "東京都豊島区巣鴨１丁目１６－１",
		"tel": "999-999-9999"
	},
	{
		"name": "駒込",
		"geo": {
			"__type": "GeoPoint",
			"latitude": 35.736489,
			"longitude": 139.74687500000005
		},
		"address": "東京都豊島区駒込２丁目１－１",
		"tel": "000-000-0000"
	},
	{
		"name": "田端",
		"geo": {
			"__type": "GeoPoint",
			"latitude": 35.738062,
			"longitude": 139.76085999999998
		},
		"address": "東京都北区東田端１丁目１７－１",
		"tel": "111-111-1111"
	},
	{
		"name": "西日暮里",
		"geo": {
			"__type": "GeoPoint",
			"latitude": 35.732135,
			"longitude": 139.76678700000002
		},
		"address": "東京都荒川区西日暮里５丁目２２－１",
		"tel": "222-222-2222"
	},
	{
		"name": "日暮里",
		"geo": {
			"__type": "GeoPoint",
			"latitude": 35.727772,
			"longitude": 139.770987
		},
		"address": "東京都荒川区西日暮里２丁目１９",
		"tel": "333-333-3333"
	},
	{
		"name": "鶯谷",
		"geo": {
			"__type": "GeoPoint",
			"latitude": 35.720495,
			"longitude": 139.77883700000007
		},
		"address": "東京都台東区根岸１丁目４－１",
		"tel": "444-444-4444"
	},
	{
		"name": "上野",
		"geo": {
			"__type": "GeoPoint",
			"latitude": 35.713768,
			"longitude": 139.77725399999997
		},
		"address": "東京都台東区上野７丁目１－１",
		"tel": "555-555-5555"
	},
	{
		"name": "御徒町",
		"geo": {
			"__type": "GeoPoint",
			"latitude": 35.707438,
			"longitude": 139.774632
		},
		"address": "東京都台東区上野５丁目２７",
		"tel": "666-666-6666"
	},
	{
		"name": "秋葉原",
		"geo": {
			"__type": "GeoPoint",
			"latitude": 35.698683,
			"longitude": 139.77421900000002
		},
		"address": "東京都千代田区外神田１丁目１６",
		"tel": "777-777-7777"
	},
	{
		"name": "神田",
		"geo": {
			"__type": "GeoPoint",
			"latitude": 35.69169,
			"longitude": 139.77088300000003
		},
		"address": "東京都千代田区鍛冶町２丁目１３",
		"tel": "888-888-8888"
	}
]}